{
    "result_size": 173,
    "estates": [
        {
            "hash_id": 3835918940,
            "size": 67,
            "locality": {
                "city": "Plzeň",
                "district": "Jižní Předměstí",
                "region": "okres Plzeň-město"
            },
            "price": 4661000,
            "et_type": "3+kk",
            "gps": {
                "lat": 49.73291740068825,
                "lon": 13.374311599311755
            },
            "company": {
                "id": 18494,
                "ico": 6663184,
                "name": "ERA Estate A. Legal"
            }
        },
        {
            "hash_id": 2883398492,
            "size": 32,
            "locality": {
                "city": "Plzeň",
                "district": "Východní Předměstí",
                "region": "okres Plzeň-město"
            },
            "price": 2696000,
            "et_type": "2+kk",
            "gps": {
                "lat": 49.72178940068825,
                "lon": 13.409757599311755
            },
            "company": null
        },
        {
            "hash_id": 503962460,
            "size": 47,
            "locality": {
                "city": "Plzeň",
                "district": "Božkov",
                "region": "okres Plzeň-město"
            },
            "price": 5311000,
            "et_type": "3+1",
            "gps": {
                "lat": 49.72542140068825,
                "lon": 13.432148599311756
            },
            "company": {
                "id": 17843,
                "ico": null,
                "name": "Bidli"
            }
        },
        {
            "hash_id": 4255386204,
            "size": 47,
            "locality": {
                "city": "Plzeň",
                "district": "Skvrňany",
                "region": "okres Plzeň-město"
            },
            "price": 3638000,
            "et_type": "2+kk",
            "gps": {
                "lat": 49.73777740068825,
                "lon": 13.330398599311755
            },
            "company": {
                "id": 2995,
                "ico": null,
                "name": "Trigema, a.s."
            }
        },
        {
            "hash_id": 2999257692,
            "size": 70,
            "locality": {
                "city": "Plzeň",
                "district": "Skvrňany",
                "region": "okres Plzeň-město"
            },
            "price": 5505000,
            "et_type": "3+kk",
            "gps": {
                "lat": 49.73777740068825,
                "lon": 13.330398599311755
            },
            "company": {
                "id": 2995,
                "ico": null,
                "name": "Trigema, a.s."
            }
        },
        {
            "hash_id": 3517188700,
            "size": 87,
            "locality": {
                "city": "Plzeň",
                "district": "Skvrňany",
                "region": "okres Plzeň-město"
            },
            "price": 6247000,
            "et_type": "4+kk",
            "gps": {
                "lat": 49.73777740068825,
                "lon": 13.330398599311755
            },
            "company": {
                "id": 2995,
                "ico": null,
                "name": "Trigema, a.s."
            }
        },
        {
            "hash_id": 3029600860,
            "size": 58,
            "locality": {
                "city": "Plzeň",
                "district": "Skvrňany",
                "region": "okres Plzeň-město"
            },
            "price": 4242000,
            "et_type": "2+kk",
            "gps": {
                "lat": 49.73777740068825,
                "lon": 13.330398599311755
            },
            "company": {
                "id": 2995,
                "ico": null,
                "name": "Trigema, a.s."
            }
        },
        {
            "hash_id": 138177116,
            "size": 202,
            "locality": {
                "city": "Plzeň",
                "district": "Jižní Předměstí",
                "region": "okres Plzeň-město"
            },
            "price": 5540000,
            "et_type": "3+kk",
            "gps": {
                "lat": 49.723449400688246,
                "lon": 13.365798599311756
            },
            "company": null
        },
        {
            "hash_id": 3173804636,
            "size": 56,
            "locality": {
                "city": "Plzeň",
                "district": "Jižní Předměstí",
                "region": "okres Plzeň-město"
            },
            "price": 2949000,
            "et_type": "1+kk",
            "gps": {
                "lat": 49.723449400688246,
                "lon": 13.365798599311756
            },
            "company": null
        },
        {
            "hash_id": 2706189148,
            "size": 23,
            "locality": {
                "city": "Plzeň",
                "district": "Jižní Předměstí",
                "region": "okres Plzeň-město"
            },
            "price": 2533000,
            "et_type": "1+kk",
            "gps": {
                "lat": 49.71946640068825,
                "lon": 13.362795599311754
            },
            "company": {
                "id": 18498,
                "ico": null,
                "name": "T2 REALITY"
            }
        },
        {
            "hash_id": 2597333596,
            "size": 53,
            "locality": {
                "city": "Plzeň",
                "district": "Východní Předměstí",
                "region": "okres Plzeň-město"
            },
            "price": 3022000,
            "et_type": "2+1",
            "gps": {
                "lat": 49.73207440068825,
                "lon": 13.401840599311754
            },
            "company": null
        },
        {
            "hash_id": 71326300,
            "size": 43,
            "locality": {
                "city": "Plzeň",
                "district": "Východní Předměstí",
                "region": "okres Plzeň-město"
            },
            "price": 2900000,
            "et_type": "2+1",
            "gps": {
                "lat": 49.72199940068825,
                "lon": 13.407890599311754
            },
            "company": null
        },
        {
            "hash_id": 1773734492,
            "size": 23,
            "locality": {
                "city": "Plzeň",
                "district": "Východní Předměstí",
                "region": "okres Plzeň-město"
            },
            "price": 0,
            "et_type": "1+kk",
            "gps": {
                "lat": 49.72125940068825,
                "lon": 13.415555599311755
            },
            "company": null
        },
        {
            "hash_id": 2792872796,
            "size": 63,
            "locality": {
                "city": "Plzeň",
                "district": "Lobzy",
                "region": "okres Plzeň-město"
            },
            "price": 3309000,
            "et_type": "3+1",
            "gps": {
                "lat": 49.725070400688246,
                "lon": 13.408977599311754
            },
            "company": null
        },
        {
            "hash_id": 3632217180,
            "size": 69,
            "locality": {
                "city": "Plzeň",
                "district": "Jižní Předměstí",
                "region": "okres Plzeň-město"
            },
            "price": 4780000,
            "et_type": "3+kk",
            "gps": {
                "lat": 49.724223400688246,
                "lon": 13.365395599311755
            },
            "company": null
        },
        {
            "hash_id": 463416156,
            "size": 32,
            "locality": {
                "city": "Plzeň",
                "district": "Východní Předměstí",
                "region": "okres Plzeň-město"
            },
            "price": 2696000,
            "et_type": "1+1",
            "gps": {
                "lat": 49.718898400688246,
                "lon": 13.410516599311755
            },
            "company": null
        },
        {
            "hash_id": 604793436,
            "size": 132,
            "locality": {
                "city": "Plzeň",
                "district": "Jižní Předměstí",
                "region": "okres Plzeň-město"
            },
            "price": 5090000,
            "et_type": "3+kk",
            "gps": {
                "lat": 49.723449400688246,
                "lon": 13.365798599311756
            },
            "company": null
        },
        {
            "hash_id": 3398380380,
            "size": 37,
            "locality": {
                "city": "Plzeň",
                "district": "Jižní Předměstí",
                "region": "okres Plzeň-město"
            },
            "price": 1356000,
            "et_type": "2+kk",
            "gps": {
                "lat": 49.73461840068825,
                "lon": 13.375480599311755
            },
            "company": null
        },
        {
            "hash_id": 1215973980,
            "size": 55,
            "locality": {
                "city": "Plzeň",
                "district": "Bolevec",
                "region": "okres Plzeň-město"
            },
            "price": 4085000,
            "et_type": "3+1",
            "gps": {
                "lat": 49.76922540068825,
                "lon": 13.363941599311755
            },
            "company": null
        },
        {
            "hash_id": 3290364764,
            "size": 57,
            "locality": {
                "city": "Plzeň",
                "district": "Východní Předměstí",
                "region": "okres Plzeň-město"
            },
            "price": 3432000,
            "et_type": "3+1",
            "gps": {
                "lat": 49.724116400688246,
                "lon": 13.408188599311755
            },
            "company": null
        },
        {
            "hash_id": 2596809564,
            "size": 59,
            "locality": {
                "city": "Plzeň",
                "district": "Jižní Předměstí",
                "region": "okres Plzeň-město"
            },
            "price": 3676000,
            "et_type": "3+1",
            "gps": {
                "lat": 49.72631740068825,
                "lon": 13.381534599311754
            },
            "company": {
                "id": 47,
                "ico": null,
                "name": "MAXIMA REALITY"
            }
        },
        {
            "hash_id": 2184411740,
            "size": 32,
            "locality": {
                "city": "Plzeň",
                "district": "Jižní Předměstí",
                "region": "okres Plzeň-město"
            },
            "price": 2621000,
            "et_type": "1+kk",
            "gps": {
                "lat": 49.73291740068825,
                "lon": 13.374311599311755
            },
            "company": {
                "id": 18494,
                "ico": 6663184,
                "name": "ERA Estate A. Legal"
            }
        },
        {
            "hash_id": 2883398492,
            "size": 32,
            "locality": {
                "city": "Plzeň",
                "district": "Východní Předměstí",
                "region": "okres Plzeň-město"
            },
            "price": 2696000,
            "et_type": "2+kk",
            "gps": {
                "lat": 49.72178940068825,
                "lon": 13.409757599311755
            },
            "company": null
        },
        {
            "hash_id": 503962460,
            "size": 47,
            "locality": {
                "city": "Plzeň",
                "district": "Božkov",
                "region": "okres Plzeň-město"
            },
            "price": 5311000,
            "et_type": "3+1",
            "gps": {
                "lat": 49.72542140068825,
                "lon": 13.432148599311756
            },
            "company": {
                "id": 17843,
                "ico": null,
                "name": "Bidli"
            }
        },
        {
            "hash_id": 4255386204,
            "size": 47,
            "locality": {
                "city": "Plzeň",
                "district": "Skvrňany",
                "region": "okres Plzeň-město"
            },
            "price": 3638000,
            "et_type": "2+kk",
            "gps": {
                "lat": 49.73777740068825,
                "lon": 13.330398599311755
            },
            "company": {
                "id": 2995,
                "ico": null,
                "name": "Trigema, a.s."
            }
        },
        {
            "hash_id": 2999257692,
            "size": 70,
            "locality": {
                "city": "Plzeň",
                "district": "Skvrňany",
                "region": "okres Plzeň-město"
            },
            "price": 5505000,
            "et_type": "3+kk",
            "gps": {
                "lat": 49.73777740068825,
                "lon": 13.330398599311755
            },
            "company": {
                "id": 2995,
                "ico": null,
                "name": "Trigema, a.s."
            }
        },
        {
            "hash_id": 3517188700,
            "size": 87,
            "locality": {
                "city": "Plzeň",
                "district": "Skvrňany",
                "region": "okres Plzeň-město"
            },
            "price": 6247000,
            "et_type": "4+kk",
            "gps": {
                "lat": 49.73777740068825,
                "lon": 13.330398599311755
            },
            "company": {
                "id": 2995,
                "ico": null,
                "name": "Trigema, a.s."
            }
        },
        {
            "hash_id": 3029600860,
            "size": 58,
            "locality": {
                "city": "Plzeň",
                "district": "Skvrňany",
                "region": "okres Plzeň-město"
            },
            "price": 4242000,
            "et_type": "2+kk",
            "gps": {
                "lat": 49.73777740068825,
                "lon": 13.330398599311755
            },
            "company": {
                "id": 2995,
                "ico": null,
                "name": "Trigema, a.s."
            }
        },
        {
            "hash_id": 138177116,
            "size": 202,
            "locality": {
                "city": "Plzeň",
                "district": "Jižní Předměstí",
                "region": "okres Plzeň-město"
            },
            "price": 5540000,
            "et_type": "3+kk",
            "gps": {
                "lat": 49.723449400688246,
                "lon": 13.365798599311756
            },
            "company": null
        },
        {
            "hash_id": 3173804636,
            "size": 56,
            "locality": {
                "city": "Plzeň",
                "district": "Jižní Předměstí",
                "region": "okres Plzeň-město"
            },
            "price": 2949000,
            "et_type": "1+kk",
            "gps": {
                "lat": 49.723449400688246,
                "lon": 13.365798599311756
            },
            "company": null
        },
        {
            "hash_id": 2706189148,
            "size": 23,
            "locality": {
                "city": "Plzeň",
                "district": "Jižní Předměstí",
                "region": "okres Plzeň-město"
            },
            "price": 2533000,
            "et_type": "1+kk",
            "gps": {
                "lat": 49.71946640068825,
                "lon": 13.362795599311754
            },
            "company": {
                "id": 18498,
                "ico": null,
                "name": "T2 REALITY"
            }
        },
        {
            "hash_id": 2597333596,
            "size": 53,
            "locality": {
                "city": "Plzeň",
                "district": "Východní Předměstí",
                "region": "okres Plzeň-město"
            },
            "price": 3022000,
            "et_type": "2+1",
            "gps": {
                "lat": 49.73207440068825,
                "lon": 13.401840599311754
            },
            "company": null
        },
        {
            "hash_id": 71326300,
            "size": 43,
            "locality": {
                "city": "Plzeň",
                "district": "Východní Předměstí",
                "region": "okres Plzeň-město"
            },
            "price": 2900000,
            "et_type": "2+1",
            "gps": {
                "lat": 49.72199940068825,
                "lon": 13.407890599311754
            },
            "company": null
        },
        {
            "hash_id": 1773734492,
            "size": 23,
            "locality": {
                "city": "Plzeň",
                "district": "Východní Předměstí",
                "region": "okres Plzeň-město"
            },
            "price": 0,
            "et_type": "1+kk",
            "gps": {
                "lat": 49.72125940068825,
                "lon": 13.415555599311755
            },
            "company": null
        },
        {
            "hash_id": 2792872796,
            "size": 63,
            "locality": {
                "city": "Plzeň",
                "district": "Lobzy",
                "region": "okres Plzeň-město"
            },
            "price": 3309000,
            "et_type": "3+1",
            "gps": {
                "lat": 49.725070400688246,
                "lon": 13.408977599311754
            },
            "company": null
        },
        {
            "hash_id": 3632217180,
            "size": 69,
            "locality": {
                "city": "Plzeň",
                "district": "Jižní Předměstí",
                "region": "okres Plzeň-město"
            },
            "price": 4780000,
            "et_type": "3+kk",
            "gps": {
                "lat": 49.724223400688246,
                "lon": 13.365395599311755
            },
            "company": null
        },
        {
            "hash_id": 463416156,
            "size": 32,
            "locality": {
                "city": "Plzeň",
                "district": "Východní Předměstí",
                "region": "okres Plzeň-město"
            },
            "price": 2696000,
            "et_type": "1+1",
            "gps": {
                "lat": 49.718898400688246,
                "lon": 13.410516599311755
            },
            "company": null
        },
        {
            "hash_id": 604793436,
            "size": 132,
            "locality": {
                "city": "Plzeň",
                "district": "Jižní Předměstí",
                "region": "okres Plzeň-město"
            },
            "price": 5090000,
            "et_type": "3+kk",
            "gps": {
                "lat": 49.723449400688246,
                "lon": 13.365798599311756
            },
            "company": null
        },
        {
            "hash_id": 3398380380,
            "size": 37,
            "locality": {
                "city": "Plzeň",
                "district": "Jižní Předměstí",
                "region": "okres Plzeň-město"
            },
            "price": 1356000,
            "et_type": "2+kk",
            "gps": {
                "lat": 49.73461840068825,
                "lon": 13.375480599311755
            },
            "company": null
        },
        {
            "hash_id": 1215973980,
            "size": 55,
            "locality": {
                "city": "Plzeň",
                "district": "Bolevec",
                "region": "okres Plzeň-město"
            },
            "price": 4085000,
            "et_type": "3+1",
            "gps": {
                "lat": 49.76922540068825,
                "lon": 13.363941599311755
            },
            "company": null
        },
        {
            "hash_id": 3290364764,
            "size": 57,
            "locality": {
                "city": "Plzeň",
                "district": "Východní Předměstí",
                "region": "okres Plzeň-město"
            },
            "price": 3432000,
            "et_type": "3+1",
            "gps": {
                "lat": 49.724116400688246,
                "lon": 13.408188599311755
            },
            "company": null
        },
        {
            "hash_id": 2596809564,
            "size": 59,
            "locality": {
                "city": "Plzeň",
                "district": "Jižní Předměstí",
                "region": "okres Plzeň-město"
            },
            "price": 3676000,
            "et_type": "3+1",
            "gps": {
                "lat": 49.72631740068825,
                "lon": 13.381534599311754
            },
            "company": {
                "id": 47,
                "ico": null,
                "name": "MAXIMA REALITY"
            }
        },
        {
            "hash_id": 11762268,
            "size": 100,
            "locality": {
                "city": "Plzeň",
                "district": "Jižní Předměstí",
                "region": "okres Plzeň-město"
            },
            "price": 7242000,
            "et_type": "3+kk",
            "gps": {
                "lat": 49.73291740068825,
                "lon": 13.374311599311755
            },
            "company": {
                "id": 18494,
                "ico": 6663184,
                "name": "ERA Estate A. Legal"
            }
        },
        {
            "hash_id": 3811060572,
            "size": 43,
            "locality": {
                "city": "Plzeň",
                "district": "Lobzy",
                "region": "okres Plzeň-město"
            },
            "price": 2851000,
            "et_type": "2+1",
            "gps": {
                "lat": 49.72490640068825,
                "lon": 13.415192599311755
            },
            "company": null
        },
        {
            "hash_id": 3936238428,
            "size": 56,
            "locality": {
                "city": "Plzeň",
                "district": "Jižní Předměstí",
                "region": "okres Plzeň-město"
            },
            "price": 2745000,
            "et_type": "2+1",
            "gps": {
                "lat": 49.71733040068825,
                "lon": 13.383344599311755
            },
            "company": null
        },
        {
            "hash_id": 503942492,
            "size": 53,
            "locality": {
                "city": "Plzeň",
                "district": "Severní Předměstí",
                "region": "okres Plzeň-město"
            },
            "price": 4060000,
            "et_type": "2+kk",
            "gps": {
                "lat": 49.749785400688246,
                "lon": 13.382265599311754
            },
            "company": null
        },
        {
            "hash_id": 1400494940,
            "size": 51,
            "locality": {
                "city": "Plzeň",
                "district": "Božkov",
                "region": "okres Plzeň-město"
            },
            "price": 5311000,
            "et_type": "2+1",
            "gps": {
                "lat": 49.72542140068825,
                "lon": 13.432148599311756
            },
            "company": {
                "id": 17843,
                "ico": null,
                "name": "Bidli"
            }
        },
        {
            "hash_id": 2680826716,
            "size": 35,
            "locality": {
                "city": "Plzeň",
                "district": "Východní Předměstí",
                "region": "okres Plzeň-město"
            },
            "price": 2443000,
            "et_type": "2+kk",
            "gps": {
                "lat": 49.72939240068825,
                "lon": 13.401086599311755
            },
            "company": null
        },
        {
            "hash_id": 1087203932,
            "size": 80,
            "locality": {
                "city": "Plzeň",
                "district": "Jižní Předměstí",
                "region": "okres Plzeň-město"
            },
            "price": 4371000,
            "et_type": "2+kk",
            "gps": {
                "lat": 49.723449400688246,
                "lon": 13.365798599311756
            },
            "company": null
        },
        {
            "hash_id": 3989113436,
            "size": 53,
            "locality": {
                "city": "Plzeň",
                "district": "Skvrňany",
                "region": "okres Plzeň-město"
            },
            "price": 4344000,
            "et_type": "2+kk",
            "gps": {
                "lat": 49.73777740068825,
                "lon": 13.330398599311755
            },
            "company": {
                "id": 2995,
                "ico": null,
                "name": "Trigema, a.s."
            }
        },
        {
            "hash_id": 1118046812,
            "size": 47,
            "locality": {
                "city": "Plzeň",
                "district": "Skvrňany",
                "region": "okres Plzeň-město"
            },
            "price": 3671000,
            "et_type": "1+kk",
            "gps": {
                "lat": 49.73777740068825,
                "lon": 13.330398599311755
            },
            "company": {
                "id": 2995,
                "ico": null,
                "name": "Trigema, a.s."
            }
        },
        {
            "hash_id": 4126813020,
            "size": 32,
            "locality": {
                "city": "Plzeň",
                "district": "Skvrňany",
                "region": "okres Plzeň-město"
            },
            "price": 2369000,
            "et_type": "1+1",
            "gps": {
                "lat": 49.73361940068825,
                "lon": 13.331079599311755
            },
            "company": null
        },
        {
            "hash_id": 3102354268,
            "size": 74,
            "locality": {
                "city": "Plzeň",
                "district": "Bolevec",
                "region": "okres Plzeň-město"
            },
            "price": 3881000,
            "et_type": "4+1",
            "gps": {
                "lat": 49.773932400688246,
                "lon": 13.375742599311755
            },
            "company": null
        },
        {
            "hash_id": 2689682012,
            "size": 64,
            "locality": {
                "city": "Plzeň",
                "district": "Doubravka",
                "region": "okres Plzeň-město"
            },
            "price": 3505000,
            "et_type": "3+1",
            "gps": {
                "lat": 49.743667400688246,
                "lon": 13.426454599311755
            },
            "company": null
        },
        {
            "hash_id": 2845575772,
            "size": 58,
            "locality": {
                "city": "Plzeň",
                "district": "Doubravka",
                "region": "okres Plzeň-město"
            },
            "price": 3669000,
            "et_type": "3+kk",
            "gps": {
                "lat": 49.74324740068825,
                "lon": 13.427931599311755
            },
            "company": null
        },
        {
            "hash_id": 2635319900,
            "size": 165,
            "locality": {
                "city": "Plzeň",
                "district": "Severní Předměstí",
                "region": "okres Plzeň-město"
            },
            "price": 6068000,
            "et_type": "3+kk",
            "gps": {
                "lat": 49.749785400688246,
                "lon": 13.382265599311754
            },
            "company": null
        },
        {
            "hash_id": 3380226908,
            "size": 42,
            "locality": {
                "city": "Plzeň",
                "district": "Lobzy",
                "region": "okres Plzeň-město"
            },
            "price": 2598000,
            "et_type": "2+1",
            "gps": {
                "lat": 49.74071840068825,
                "lon": 13.425976599311754
            },
            "company": {
                "id": 13410,
                "ico": null,
                "name": "Idea Reality"
            }
        },
        {
            "hash_id": 1315580764,
            "size": 81,
            "locality": {
                "city": "Plzeň",
                "district": "Jižní Předměstí",
                "region": "okres Plzeň-město"
            },
            "price": 6097000,
            "et_type": "3+kk",
            "gps": {
                "lat": 49.73942940068825,
                "lon": 13.375992599311754
            },
            "company": null
        },
        {
            "hash_id": 1973103452,
            "size": 78,
            "locality": {
                "city": "Plzeň",
                "district": "Východní Předměstí",
                "region": "okres Plzeň-město"
            },
            "price": 3914000,
            "et_type": "4+1",
            "gps": {
                "lat": 49.71647240068825,
                "lon": 13.409707599311755
            },
            "company": null
        },
        {
            "hash_id": 435788636,
            "size": 32,
            "locality": {
                "city": "Plzeň",
                "district": "Skvrňany",
                "region": "okres Plzeň-město"
            },
            "price": 2360000,
            "et_type": "1+1",
            "gps": {
                "lat": 49.740771400688246,
                "lon": 13.349881599311756
            },
            "company": null
        },
        {
            "hash_id": 11762268,
            "size": 100,
            "locality": {
                "city": "Plzeň",
                "district": "Jižní Předměstí",
                "region": "okres Plzeň-město"
            },
            "price": 7242000,
            "et_type": "3+kk",
            "gps": {
                "lat": 49.73291740068825,
                "lon": 13.374311599311755
            },
            "company": null
        },
        {
            "hash_id": 2184411740,
            "size": 32,
            "locality": {
                "city": "Plzeň",
                "district": "Jižní Předměstí",
                "region": "okres Plzeň-město"
            },
            "price": 2621000,
            "et_type": "1+kk",
            "gps": {
                "lat": 49.73291740068825,
                "lon": 13.374311599311755
            },
            "company": null
        },
        {
            "hash_id": 3835918940,
            "size": 67,
            "locality": {
                "city": "Plzeň",
                "district": "Jižní Předměstí",
                "region": "okres Plzeň-město"
            },
            "price": 4661000,
            "et_type": "3+kk",
            "gps": {
                "lat": 49.73291740068825,
                "lon": 13.374311599311755
            },
            "company": null
        },
        {
            "hash_id": 2184411740,
            "size": 32,
            "locality": {
                "city": "Plzeň",
                "district": "Jižní Předměstí",
                "region": "okres Plzeň-město"
            },
            "price": 2621000,
            "et_type": "1+kk",
            "gps": {
                "lat": 49.73291740068825,
                "lon": 13.374311599311755
            },
            "company": {
                "id": 18494,
                "ico": 6663184,
                "name": "ERA Estate A. Legal"
            }
        },
        {
            "hash_id": 1039416156,
            "size": 35,
            "locality": {
                "city": "Plzeň",
                "district": "Skvrňany",
                "region": "okres Plzeň-město"
            },
            "price": 1789000,
            "et_type": "1+1",
            "gps": {
                "lat": 49.729362400688245,
                "lon": 13.336581599311755
            },
            "company": null
        },
        {
            "hash_id": 3602303836,
            "size": 53,
            "locality": {
                "city": "Plzeň",
                "district": "Skvrňany",
                "region": "okres Plzeň-město"
            },
            "price": 2860000,
            "et_type": "3+1",
            "gps": {
                "lat": 49.737346400688246,
                "lon": 13.355075599311755
            },
            "company": null
        },
        {
            "hash_id": 956578652,
            "size": 38,
            "locality": {
                "city": "Plzeň",
                "district": "Černice",
                "region": "okres Plzeň-město"
            },
            "price": 3268000,
            "et_type": "2+kk",
            "gps": {
                "lat": 49.69975640068825,
                "lon": 13.423707599311754
            },
            "company": null
        },
        {
            "hash_id": 323238748,
            "size": 45,
            "locality": {
                "city": "Plzeň",
                "district": "Lobzy",
                "region": "okres Plzeň-město"
            },
            "price": 2525000,
            "et_type": "2+1",
            "gps": {
                "lat": 49.74047440068825,
                "lon": 13.423777599311755
            },
            "company": null
        },
        {
            "hash_id": 1475754844,
            "size": 62,
            "locality": {
                "city": "Plzeň",
                "district": "Jižní Předměstí",
                "region": "okres Plzeň-město"
            },
            "price": 3260000,
            "et_type": "2+1",
            "gps": {
                "lat": 49.72629540068825,
                "lon": 13.376553599311755
            },
            "company": null
        },
        {
            "hash_id": 2430327388,
            "size": 54,
            "locality": {
                "city": "Plzeň",
                "district": "Jižní Předměstí",
                "region": "okres Plzeň-město"
            },
            "price": 2933000,
            "et_type": "3+1",
            "gps": {
                "lat": 49.72993840068825,
                "lon": 13.376868599311754
            },
            "company": null
        },
        {
            "hash_id": 862161756,
            "size": 67,
            "locality": {
                "city": "Plzeň",
                "district": "Lobzy",
                "region": "okres Plzeň-město"
            },
            "price": 3591000,
            "et_type": "4+1",
            "gps": {
                "lat": 49.74133640068825,
                "lon": 13.415682599311754
            },
            "company": {
                "id": 13367,
                "ico": null,
                "name": "BYTY Západ, s.r.o."
            }
        },
        {
            "hash_id": 1504778844,
            "size": 47,
            "locality": {
                "city": "Plzeň",
                "district": "Východní Předměstí",
                "region": "okres Plzeň-město"
            },
            "price": 2770000,
            "et_type": "2+1",
            "gps": {
                "lat": 49.72178940068825,
                "lon": 13.409757599311755
            },
            "company": null
        },
        {
            "hash_id": 1831267164,
            "size": 57,
            "locality": {
                "city": "Plzeň",
                "district": "Východní Předměstí",
                "region": "okres Plzeň-město"
            },
            "price": 3391000,
            "et_type": "2+1",
            "gps": {
                "lat": 49.71821140068825,
                "lon": 13.408817599311755
            },
            "company": null
        },
        {
            "hash_id": 3961383772,
            "size": 34,
            "locality": {
                "city": "Plzeň",
                "district": "Doubravka",
                "region": "okres Plzeň-město"
            },
            "price": 2614000,
            "et_type": "1+1",
            "gps": {
                "lat": 49.74633340068825,
                "lon": 13.423382599311754
            },
            "company": null
        },
        {
            "hash_id": 3519785820,
            "size": 40,
            "locality": {
                "city": "Plzeň",
                "district": "Jižní Předměstí",
                "region": "okres Plzeň-město"
            },
            "price": 3587000,
            "et_type": "2+kk",
            "gps": {
                "lat": 49.71996640068825,
                "lon": 13.361085599311755
            },
            "company": {
                "id": 17843,
                "ico": null,
                "name": "Bidli"
            }
        },
        {
            "hash_id": 466602844,
            "size": 49,
            "locality": {
                "city": "Plzeň",
                "district": "Bolevec",
                "region": "okres Plzeň-město"
            },
            "price": 2895000,
            "et_type": "2+kk",
            "gps": {
                "lat": 49.76940440068825,
                "lon": 13.368905599311756
            },
            "company": null
        },
        {
            "hash_id": 717871964,
            "size": 55,
            "locality": {
                "city": "Plzeň",
                "district": "Bolevec",
                "region": "okres Plzeň-město"
            },
            "price": 2696000,
            "et_type": "2+1",
            "gps": {
                "lat": 49.763961400688245,
                "lon": 13.380054599311755
            },
            "company": null
        },
        {
            "hash_id": 4125084508,
            "size": 51,
            "locality": {
                "city": "Plzeň",
                "district": "Bolevec",
                "region": "okres Plzeň-město"
            },
            "price": 2980000,
            "et_type": "1+kk",
            "gps": {
                "lat": 49.76935540068825,
                "lon": 13.368814599311754
            },
            "company": null
        },
        {
            "hash_id": 1549810524,
            "size": 80,
            "locality": {
                "city": "Plzeň",
                "district": "Jižní Předměstí",
                "region": "okres Plzeň-město"
            },
            "price": 4739000,
            "et_type": "4+1",
            "gps": {
                "lat": 49.73002240068825,
                "lon": 13.377043599311754
            },
            "company": null
        },
        {
            "hash_id": 2741058396,
            "size": 40,
            "locality": {
                "city": "Plzeň",
                "district": "Jižní Předměstí",
                "region": "okres Plzeň-město"
            },
            "price": 2614000,
            "et_type": "2+kk",
            "gps": {
                "lat": 49.72541040068825,
                "lon": 13.382225599311754
            },
            "company": null
        },
        {
            "hash_id": 3087846236,
            "size": 47,
            "locality": {
                "city": "",
                "district": "Starý Plzenec",
                "region": "okres Plzeň-město"
            },
            "price": 2892000,
            "et_type": "2+1",
            "gps": {
                "lat": 49.68790040068825,
                "lon": 13.487478599311755
            },
            "company": null
        },
        {
            "hash_id": 4023163484,
            "size": 38,
            "locality": {
                "city": "Plzeň",
                "district": "Skvrňany",
                "region": "okres Plzeň-město"
            },
            "price": 2606000,
            "et_type": "2+kk",
            "gps": {
                "lat": 49.72928540068825,
                "lon": 13.335430599311755
            },
            "company": null
        },
        {
            "hash_id": 2700889180,
            "size": 49,
            "locality": {
                "city": "Plzeň",
                "district": "Bolevec",
                "region": "okres Plzeň-město"
            },
            "price": 2854000,
            "et_type": "2+kk",
            "gps": {
                "lat": 49.76935540068825,
                "lon": 13.368814599311754
            },
            "company": null
        },
        {
            "hash_id": 264953436,
            "size": 51,
            "locality": {
                "city": "Plzeň",
                "district": "Bolevec",
                "region": "okres Plzeň-město"
            },
            "price": 2939000,
            "et_type": "1+kk",
            "gps": {
                "lat": 49.76930940068825,
                "lon": 13.368775599311755
            },
            "company": null
        },
        {
            "hash_id": 2184411740,
            "size": 32,
            "locality": {
                "city": "Plzeň",
                "district": "Jižní Předměstí",
                "region": "okres Plzeň-město"
            },
            "price": 2621000,
            "et_type": "1+kk",
            "gps": {
                "lat": 49.73291740068825,
                "lon": 13.374311599311755
            },
            "company": {
                "id": 18494,
                "ico": 6663184,
                "name": "ERA Estate A. Legal"
            }
        },
        {
            "hash_id": 4002020700,
            "size": 42,
            "locality": {
                "city": "Plzeň",
                "district": "Křimice",
                "region": "okres Plzeň-město"
            },
            "price": 3182000,
            "et_type": "2+kk",
            "gps": {
                "lat": 49.74589840068825,
                "lon": 13.307803599311756
            },
            "company": null
        },
        {
            "hash_id": 2324299100,
            "size": 42,
            "locality": {
                "city": "Plzeň",
                "district": "Křimice",
                "region": "okres Plzeň-město"
            },
            "price": 3182000,
            "et_type": "2+kk",
            "gps": {
                "lat": 49.74589840068825,
                "lon": 13.307803599311756
            },
            "company": null
        },
        {
            "hash_id": 1558813532,
            "size": 51,
            "locality": {
                "city": "Plzeň",
                "district": "Bolevec",
                "region": "okres Plzeň-město"
            },
            "price": 3750000,
            "et_type": "3+1",
            "gps": {
                "lat": 49.77254440068825,
                "lon": 13.382252599311755
            },
            "company": {
                "id": 13367,
                "ico": null,
                "name": "BYTY Západ, s.r.o."
            }
        },
        {
            "hash_id": 2939845212,
            "size": 57,
            "locality": {
                "city": "Plzeň",
                "district": "Jižní Předměstí",
                "region": "okres Plzeň-město"
            },
            "price": 3423000,
            "et_type": "3+kk",
            "gps": {
                "lat": 49.73928040068825,
                "lon": 13.377646599311754
            },
            "company": null
        },
        {
            "hash_id": 3290184540,
            "size": 60,
            "locality": {
                "city": "Plzeň",
                "district": "Jižní Předměstí",
                "region": "okres Plzeň-město"
            },
            "price": 2447000,
            "et_type": "2+kk",
            "gps": {
                "lat": 49.73194040068825,
                "lon": 13.385177599311755
            },
            "company": null
        },
        {
            "hash_id": 874330972,
            "size": 66,
            "locality": {
                "city": "Plzeň",
                "district": "Bolevec",
                "region": "okres Plzeň-město"
            },
            "price": 4731000,
            "et_type": "2+kk",
            "gps": {
                "lat": 49.767749400688245,
                "lon": 13.391191599311755
            },
            "company": null
        },
        {
            "hash_id": 1466776412,
            "size": 59,
            "locality": {
                "city": "Plzeň",
                "district": "Východní Předměstí",
                "region": "okres Plzeň-město"
            },
            "price": 4077000,
            "et_type": "3+kk",
            "gps": {
                "lat": 49.73001040068825,
                "lon": 13.398198599311755
            },
            "company": null
        },
        {
            "hash_id": 626932572,
            "size": 27,
            "locality": {
                "city": "Plzeň",
                "district": "Jižní Předměstí",
                "region": "okres Plzeň-město"
            },
            "price": 2116000,
            "et_type": "1+1",
            "gps": {
                "lat": 49.72377340068825,
                "lon": 13.378564599311755
            },
            "company": null
        },
        {
            "hash_id": 1651391324,
            "size": 44,
            "locality": {
                "city": "Plzeň",
                "district": "Bolevec",
                "region": "okres Plzeň-město"
            },
            "price": 3023000,
            "et_type": "2+1",
            "gps": {
                "lat": 49.76149340068825,
                "lon": 13.380206599311755
            },
            "company": null
        },
        {
            "hash_id": 1670331228,
            "size": 55,
            "locality": {
                "city": "Plzeň",
                "district": "Doubravka",
                "region": "okres Plzeň-město"
            },
            "price": 2966000,
            "et_type": "2+1",
            "gps": {
                "lat": 49.75294440068825,
                "lon": 13.424194599311754
            },
            "company": null
        },
        {
            "hash_id": 1508850524,
            "size": 55,
            "locality": {
                "city": "Plzeň",
                "district": "Doubravka",
                "region": "okres Plzeň-město"
            },
            "price": 2966000,
            "et_type": "2+1",
            "gps": {
                "lat": 49.75294440068825,
                "lon": 13.424194599311754
            },
            "company": null
        },
        {
            "hash_id": 215669596,
            "size": 78,
            "locality": {
                "city": "Plzeň",
                "district": "Severní Předměstí",
                "region": "okres Plzeň-město"
            },
            "price": 3677000,
            "et_type": "3+1",
            "gps": {
                "lat": 49.75061740068825,
                "lon": 13.381383599311755
            },
            "company": {
                "id": 15207,
                "ico": null,
                "name": "Trendy Reality s.r.o."
            }
        },
        {
            "hash_id": 66878044,
            "size": 35,
            "locality": {
                "city": "Plzeň",
                "district": "Křimice",
                "region": "okres Plzeň-město"
            },
            "price": 2859000,
            "et_type": "2+kk",
            "gps": {
                "lat": 49.74589840068825,
                "lon": 13.307803599311756
            },
            "company": null
        },
        {
            "hash_id": 2461612892,
            "size": 63,
            "locality": {
                "city": "Plzeň",
                "district": "Severní Předměstí",
                "region": "okres Plzeň-město"
            },
            "price": 3750000,
            "et_type": "3+1",
            "gps": {
                "lat": 49.754474400688245,
                "lon": 13.362199599311754
            },
            "company": null
        },
        {
            "hash_id": 2093804380,
            "size": 55,
            "locality": {
                "city": "Plzeň",
                "district": "Doubravka",
                "region": "okres Plzeň-město"
            },
            "price": 3839000,
            "et_type": "2+1",
            "gps": {
                "lat": 49.75197940068825,
                "lon": 13.422775599311755
            },
            "company": null
        },
        {
            "hash_id": 69458780,
            "size": 45,
            "locality": {
                "city": "Plzeň",
                "district": "Jižní Předměstí",
                "region": "okres Plzeň-město"
            },
            "price": 2614000,
            "et_type": "2+1",
            "gps": {
                "lat": 49.72486440068825,
                "lon": 13.381106599311755
            },
            "company": null
        },
        {
            "hash_id": 1966287452,
            "size": 47,
            "locality": {
                "city": "Plzeň",
                "district": "Skvrňany",
                "region": "okres Plzeň-město"
            },
            "price": 2369000,
            "et_type": "2+1",
            "gps": {
                "lat": 49.73665940068825,
                "lon": 13.332285599311755
            },
            "company": null
        },
        {
            "hash_id": 1541343836,
            "size": 62,
            "locality": {
                "city": "Plzeň",
                "district": "Východní Předměstí",
                "region": "okres Plzeň-město"
            },
            "price": 4077000,
            "et_type": "4+1",
            "gps": {
                "lat": 49.73328340068825,
                "lon": 13.403814599311755
            },
            "company": null
        },
        {
            "hash_id": 2906274652,
            "size": 77,
            "locality": {
                "city": "Plzeň",
                "district": "Jižní Předměstí",
                "region": "okres Plzeň-město"
            },
            "price": 3146000,
            "et_type": "2+1",
            "gps": {
                "lat": 49.73194040068825,
                "lon": 13.385177599311755
            },
            "company": null
        },
        {
            "hash_id": 3004484444,
            "size": 47,
            "locality": {
                "city": "Plzeň",
                "district": "Bolevec",
                "region": "okres Plzeň-město"
            },
            "price": 2860000,
            "et_type": "2+1",
            "gps": {
                "lat": 49.75976540068825,
                "lon": 13.381061599311755
            },
            "company": null
        },
        {
            "hash_id": 2184411740,
            "size": 32,
            "locality": {
                "city": "Plzeň",
                "district": "Jižní Předměstí",
                "region": "okres Plzeň-město"
            },
            "price": 2621000,
            "et_type": "1+kk",
            "gps": {
                "lat": 49.73291740068825,
                "lon": 13.374311599311755
            },
            "company": {
                "id": 18494,
                "ico": 6663184,
                "name": "ERA Estate A. Legal"
            }
        },
        {
            "hash_id": 805620572,
            "size": 36,
            "locality": {
                "city": "Plzeň",
                "district": "Nová Hospoda",
                "region": "okres Plzeň-město"
            },
            "price": 2737000,
            "et_type": "2+kk",
            "gps": {
                "lat": 49.72438340068825,
                "lon": 13.321091599311755
            },
            "company": null
        },
        {
            "hash_id": 3482700636,
            "size": 46,
            "locality": {
                "city": "Plzeň",
                "district": "Východní Předměstí",
                "region": "okres Plzeň-město"
            },
            "price": 2696000,
            "et_type": "2+1",
            "gps": {
                "lat": 49.72594740068825,
                "lon": 13.407226599311755
            },
            "company": null
        },
        {
            "hash_id": 397790044,
            "size": 58,
            "locality": {
                "city": "Plzeň",
                "district": "Východní Předměstí",
                "region": "okres Plzeň-město"
            },
            "price": 5058000,
            "et_type": "3+kk",
            "gps": {
                "lat": 49.73250540068825,
                "lon": 13.393484599311755
            },
            "company": null
        },
        {
            "hash_id": 3358607964,
            "size": 115,
            "locality": {
                "city": "Plzeň",
                "district": "Jižní Předměstí",
                "region": "okres Plzeň-město"
            },
            "price": 0,
            "et_type": "4+1",
            "gps": {
                "lat": 49.73382140068825,
                "lon": 13.383849599311755
            },
            "company": null
        },
        {
            "hash_id": 990366556,
            "size": 43,
            "locality": {
                "city": "Plzeň",
                "district": "Jižní Předměstí",
                "region": "okres Plzeň-město"
            },
            "price": 2933000,
            "et_type": "2+kk",
            "gps": {
                "lat": 49.73967340068825,
                "lon": 13.369556599311755
            },
            "company": {
                "id": 18570,
                "ico": null,
                "name": "OTTE Reality, s.r.o."
            }
        },
        {
            "hash_id": 27527772,
            "size": 59,
            "locality": {
                "city": "Plzeň",
                "district": "Skvrňany",
                "region": "okres Plzeň-město"
            },
            "price": 4472000,
            "et_type": "3+kk",
            "gps": {
                "lat": 49.73777740068825,
                "lon": 13.330398599311755
            },
            "company": {
                "id": 2995,
                "ico": null,
                "name": "Trigema, a.s."
            }
        },
        {
            "hash_id": 2409892444,
            "size": 49,
            "locality": {
                "city": "Plzeň",
                "district": "Skvrňany",
                "region": "okres Plzeň-město"
            },
            "price": 3666000,
            "et_type": "2+kk",
            "gps": {
                "lat": 49.73777740068825,
                "lon": 13.330398599311755
            },
            "company": {
                "id": 2995,
                "ico": null,
                "name": "Trigema, a.s."
            }
        },
        {
            "hash_id": 3156253532,
            "size": 65,
            "locality": {
                "city": "Plzeň",
                "district": "Radobyčice",
                "region": "okres Plzeň-město"
            },
            "price": 5638000,
            "et_type": "3+kk",
            "gps": {
                "lat": 49.68998240068825,
                "lon": 13.400866599311755
            },
            "company": null
        },
        {
            "hash_id": 1393740636,
            "size": 111,
            "locality": {
                "city": "Plzeň",
                "district": "Jižní Předměstí",
                "region": "okres Plzeň-město"
            },
            "price": 2917000,
            "et_type": "4+1",
            "gps": {
                "lat": 49.73077740068825,
                "lon": 13.375010599311755
            },
            "company": null
        },
        {
            "hash_id": 2290019164,
            "size": 65,
            "locality": {
                "city": "Plzeň",
                "district": "Východní Předměstí",
                "region": "okres Plzeň-město"
            },
            "price": 3252000,
            "et_type": "3+1",
            "gps": {
                "lat": 49.72602840068825,
                "lon": 13.398201599311754
            },
            "company": {
                "id": 21256,
                "ico": null,
                "name": "Tode realitní kancelář"
            }
        },
        {
            "hash_id": 3145976668,
            "size": 44,
            "locality": {
                "city": "Štěnovický Borek",
                "district": "Nebílovský Borek",
                "region": "okres Plzeň-město"
            },
            "price": 2859000,
            "et_type": "2+kk",
            "gps": {
                "lat": 49.64298240068825,
                "lon": 13.439687599311755
            },
            "company": null
        },
        {
            "hash_id": 1909209692,
            "size": 29,
            "locality": {
                "city": "Plzeň",
                "district": "Litice",
                "region": "okres Plzeň-město"
            },
            "price": 2614000,
            "et_type": "1+kk",
            "gps": {
                "lat": 49.69391940068825,
                "lon": 13.363384599311754
            },
            "company": null
        },
        {
            "hash_id": 3924020060,
            "size": 58,
            "locality": {
                "city": "Plzeň",
                "district": "Bolevec",
                "region": "okres Plzeň-město"
            },
            "price": 3505000,
            "et_type": "3+1",
            "gps": {
                "lat": 49.773932400688246,
                "lon": 13.375742599311755
            },
            "company": null
        },
        {
            "hash_id": 4250954332,
            "size": 69,
            "locality": {
                "city": "Plzeň",
                "district": "Východní Předměstí",
                "region": "okres Plzeň-město"
            },
            "price": 3423000,
            "et_type": "3+1",
            "gps": {
                "lat": 49.73171540068825,
                "lon": 13.404101599311755
            },
            "company": {
                "id": 3156,
                "ico": null,
                "name": "EDEN reality - Michal Mušek"
            }
        },
        {
            "hash_id": 991992668,
            "size": 60,
            "locality": {
                "city": "Plzeň",
                "district": "Lobzy",
                "region": "okres Plzeň-město"
            },
            "price": 3423000,
            "et_type": "3+kk",
            "gps": {
                "lat": 49.73933740068825,
                "lon": 13.414925599311754
            },
            "company": null
        },
        {
            "hash_id": 3502164828,
            "size": 44,
            "locality": {
                "city": "",
                "district": "Plzeň",
                "region": "okres Plzeň-město"
            },
            "price": 1314000,
            "et_type": "2+1",
            "gps": {
                "lat": 49.73961240068825,
                "lon": 13.386520599311755
            },
            "company": {
                "id": 18258,
                "ico": null,
                "name": "JURIS REAL Dražby, a.s."
            }
        },
        {
            "hash_id": 2227984988,
            "size": 67,
            "locality": {
                "city": "Plzeň",
                "district": "Severní Předměstí",
                "region": "okres Plzeň-město"
            },
            "price": 5964000,
            "et_type": "3+kk",
            "gps": {
                "lat": 49.74510940068825,
                "lon": 13.386355599311754
            },
            "company": null
        },
        {
            "hash_id": 112913244,
            "size": 40,
            "locality": {
                "city": "Plzeň",
                "district": "Východní Předměstí",
                "region": "okres Plzeň-město"
            },
            "price": 3060000,
            "et_type": "1+kk",
            "gps": {
                "lat": 49.74244640068825,
                "lon": 13.388130599311754
            },
            "company": null
        },
        {
            "hash_id": 801409884,
            "size": 84,
            "locality": {
                "city": "Plzeň",
                "district": "Východní Předměstí",
                "region": "okres Plzeň-město"
            },
            "price": 7322000,
            "et_type": "4+kk",
            "gps": {
                "lat": 49.74244640068825,
                "lon": 13.388130599311754
            },
            "company": null
        },
        {
            "hash_id": 2240711516,
            "size": 53,
            "locality": {
                "city": "Plzeň",
                "district": "Východní Předměstí",
                "region": "okres Plzeň-město"
            },
            "price": 4043000,
            "et_type": "2+kk",
            "gps": {
                "lat": 49.74244640068825,
                "lon": 13.388130599311754
            },
            "company": null
        },
        {
            "hash_id": 11762268,
            "size": 100,
            "locality": {
                "city": "Plzeň",
                "district": "Jižní Předměstí",
                "region": "okres Plzeň-město"
            },
            "price": 7242000,
            "et_type": "3+kk",
            "gps": {
                "lat": 49.73291740068825,
                "lon": 13.374311599311755
            },
            "company": {
                "id": 18494,
                "ico": 6663184,
                "name": "ERA Estate A. Legal"
            }
        },
        {
            "hash_id": 810015580,
            "size": 147,
            "locality": {
                "city": "Plzeň",
                "district": "Jižní Předměstí",
                "region": "okres Plzeň-město"
            },
            "price": 6120000,
            "et_type": "4+kk",
            "gps": {
                "lat": 49.728999400688245,
                "lon": 13.382099599311754
            },
            "company": null
        },
        {
            "hash_id": 1834941276,
            "size": 71,
            "locality": {
                "city": "Plzeň",
                "district": "Východní Předměstí",
                "region": "okres Plzeň-město"
            },
            "price": 5474000,
            "et_type": "3+kk",
            "gps": {
                "lat": 49.73950940068825,
                "lon": 13.391369599311755
            },
            "company": {
                "id": 13260,
                "ico": null,
                "name": "BOUCHAL reality"
            }
        },
        {
            "hash_id": 6998876,
            "size": 70,
            "locality": {
                "city": "Plzeň",
                "district": "Severní Předměstí",
                "region": "okres Plzeň-město"
            },
            "price": 3718000,
            "et_type": "4+1",
            "gps": {
                "lat": 49.760333400688246,
                "lon": 13.376109599311755
            },
            "company": null
        },
        {
            "hash_id": 4041984860,
            "size": 41,
            "locality": {
                "city": "Plzeň",
                "district": "Lobzy",
                "region": "okres Plzeň-město"
            },
            "price": 1090000,
            "et_type": "2+1",
            "gps": {
                "lat": 49.72466640068825,
                "lon": 13.415832599311754
            },
            "company": null
        },
        {
            "hash_id": 915159644,
            "size": 130,
            "locality": {
                "city": "Plzeň",
                "district": "Severní Předměstí",
                "region": "okres Plzeň-město"
            },
            "price": 6945000,
            "et_type": "4+kk",
            "gps": {
                "lat": 49.74973240068825,
                "lon": 13.387496599311755
            },
            "company": null
        },
        {
            "hash_id": 53992284,
            "size": 67,
            "locality": {
                "city": "Plzeň",
                "district": "Východní Předměstí",
                "region": "okres Plzeň-město"
            },
            "price": 3914000,
            "et_type": "3+1",
            "gps": {
                "lat": 49.73931040068825,
                "lon": 13.399627599311755
            },
            "company": null
        },
        {
            "hash_id": 4087933788,
            "size": 49,
            "locality": {
                "city": "Plzeň",
                "district": "Jižní Předměstí",
                "region": "okres Plzeň-město"
            },
            "price": 2443000,
            "et_type": "2+kk",
            "gps": {
                "lat": 49.73110940068825,
                "lon": 13.373386599311754
            },
            "company": null
        },
        {
            "hash_id": 3552631644,
            "size": 44,
            "locality": {
                "city": "Plzeň",
                "district": "Východní Předměstí",
                "region": "okres Plzeň-město"
            },
            "price": 2941000,
            "et_type": "3+kk",
            "gps": {
                "lat": 49.73504540068825,
                "lon": 13.402238599311755
            },
            "company": null
        },
        {
            "hash_id": 1760569948,
            "size": 204,
            "locality": {
                "city": "Plzeň",
                "district": "Skvrňany",
                "region": "okres Plzeň-město"
            },
            "price": 5711000,
            "et_type": "3+kk",
            "gps": {
                "lat": 49.73312740068825,
                "lon": 13.330473599311755
            },
            "company": null
        },
        {
            "hash_id": 2277662044,
            "size": 144,
            "locality": {
                "city": "Plzeň",
                "district": "Skvrňany",
                "region": "okres Plzeň-město"
            },
            "price": 4315000,
            "et_type": "3+kk",
            "gps": {
                "lat": 49.73312740068825,
                "lon": 13.330473599311755
            },
            "company": null
        },
        {
            "hash_id": 3697790556,
            "size": 136,
            "locality": {
                "city": "Plzeň",
                "district": "Skvrňany",
                "region": "okres Plzeň-město"
            },
            "price": 3928000,
            "et_type": "2+kk",
            "gps": {
                "lat": 49.73312740068825,
                "lon": 13.330473599311755
            },
            "company": null
        },
        {
            "hash_id": 4184329820,
            "size": 70,
            "locality": {
                "city": "Plzeň",
                "district": "Skvrňany",
                "region": "okres Plzeň-město"
            },
            "price": 2643000,
            "et_type": "1+kk",
            "gps": {
                "lat": 49.73312740068825,
                "lon": 13.330473599311755
            },
            "company": null
        },
        {
            "hash_id": 302832476,
            "size": 31,
            "locality": {
                "city": "Plzeň",
                "district": "Bolevec",
                "region": "okres Plzeň-město"
            },
            "price": 2361000,
            "et_type": "1+kk",
            "gps": {
                "lat": 49.76555540068825,
                "lon": 13.382686599311755
            },
            "company": null
        },
        {
            "hash_id": 2987166556,
            "size": 50,
            "locality": {
                "city": "Plzeň",
                "district": "Severní Předměstí",
                "region": "okres Plzeň-město"
            },
            "price": 2958000,
            "et_type": "2+1",
            "gps": {
                "lat": 49.76063440068825,
                "lon": 13.373480599311755
            },
            "company": {
                "id": 17843,
                "ico": null,
                "name": "Bidli"
            }
        },
        {
            "hash_id": 2189024092,
            "size": 53,
            "locality": {
                "city": "Plzeň",
                "district": "Božkov",
                "region": "okres Plzeň-město"
            },
            "price": 5311000,
            "et_type": "2+1",
            "gps": {
                "lat": 49.72542140068825,
                "lon": 13.432148599311756
            },
            "company": {
                "id": 17843,
                "ico": null,
                "name": "Bidli"
            }
        },
        {
            "hash_id": 512047708,
            "size": 57,
            "locality": {
                "city": "Plzeň",
                "district": "Černice",
                "region": "okres Plzeň-město"
            },
            "price": 5719000,
            "et_type": "2+kk",
            "gps": {
                "lat": 49.690181400688246,
                "lon": 13.429216599311754
            },
            "company": {
                "id": 17843,
                "ico": null,
                "name": "Bidli"
            }
        },
        {
            "hash_id": 554621788,
            "size": 32,
            "locality": {
                "city": "Plzeň",
                "district": "Jižní Předměstí",
                "region": "okres Plzeň-město"
            },
            "price": 2328000,
            "et_type": "2+1",
            "gps": {
                "lat": 49.71379440068825,
                "lon": 13.380587599311754
            },
            "company": {
                "id": 13410,
                "ico": null,
                "name": "Idea Reality"
            }
        },
        {
            "hash_id": 4114017116,
            "size": 25,
            "locality": {
                "city": "Plzeň",
                "district": "Severní Předměstí",
                "region": "okres Plzeň-město"
            },
            "price": 1773000,
            "et_type": "1+kk",
            "gps": {
                "lat": 49.754291400688246,
                "lon": 13.363096599311755
            },
            "company": null
        },
        {
            "hash_id": 2911501660,
            "size": 59,
            "locality": {
                "city": "Plzeň",
                "district": "Křimice",
                "region": "okres Plzeň-město"
            },
            "price": 3843000,
            "et_type": "3+kk",
            "gps": {
                "lat": 49.74589840068825,
                "lon": 13.307803599311756
            },
            "company": null
        },
        {
            "hash_id": 192015196,
            "size": 73,
            "locality": {
                "city": "",
                "district": "Plzeň",
                "region": "okres Plzeň-město"
            },
            "price": 1617000,
            "et_type": "4+1",
            "gps": {
                "lat": 49.73961240068825,
                "lon": 13.386520599311755
            },
            "company": {
                "id": 18258,
                "ico": null,
                "name": "JURIS REAL Dražby, a.s."
            }
        },
        {
            "hash_id": 3835918940,
            "size": 67,
            "locality": {
                "city": "Plzeň",
                "district": "Jižní Předměstí",
                "region": "okres Plzeň-město"
            },
            "price": 4661000,
            "et_type": "3+kk",
            "gps": {
                "lat": 49.73291740068825,
                "lon": 13.374311599311755
            },
            "company": {
                "id": 18494,
                "ico": 6663184,
                "name": "ERA Estate A. Legal"
            }
        },
        {
            "hash_id": 296282972,
            "size": 66,
            "locality": {
                "city": "Plzeň",
                "district": "Východní Předměstí",
                "region": "okres Plzeň-město"
            },
            "price": 3991000,
            "et_type": "3+kk",
            "gps": {
                "lat": 49.72434540068825,
                "lon": 13.402234599311754
            },
            "company": null
        },
        {
            "hash_id": 4140559196,
            "size": 51,
            "locality": {
                "city": "Plzeň",
                "district": "Skvrňany",
                "region": "okres Plzeň-město"
            },
            "price": 2778000,
            "et_type": "2+1",
            "gps": {
                "lat": 49.734298400688246,
                "lon": 13.335004599311755
            },
            "company": {
                "id": 20450,
                "ico": null,
                "name": "Pro Západ reality"
            }
        },
        {
            "hash_id": 1501952860,
            "size": 45,
            "locality": {
                "city": "Plzeň",
                "district": "Plzeň 4",
                "region": "okres Plzeň-město"
            },
            "price": 3423000,
            "et_type": "2+kk",
            "gps": {
                "lat": 49.74867240068825,
                "lon": 13.458635599311755
            },
            "company": {
                "id": 18570,
                "ico": null,
                "name": "OTTE Reality, s.r.o."
            }
        },
        {
            "hash_id": 43166556,
            "size": 55,
            "locality": {
                "city": "Plzeň",
                "district": "Bolevec",
                "region": "okres Plzeň-město"
            },
            "price": 3832000,
            "et_type": "3+1",
            "gps": {
                "lat": 49.77389440068825,
                "lon": 13.385580599311755
            },
            "company": {
                "id": 17843,
                "ico": null,
                "name": "Bidli"
            }
        },
        {
            "hash_id": 3909520220,
            "size": 49,
            "locality": {
                "city": "Plzeň",
                "district": "Skvrňany",
                "region": "okres Plzeň-město"
            },
            "price": 2525000,
            "et_type": "2+1",
            "gps": {
                "lat": 49.737498400688246,
                "lon": 13.353451599311756
            },
            "company": null
        },
        {
            "hash_id": 1864665948,
            "size": 60,
            "locality": {
                "city": "Plzeň",
                "district": "Jižní Předměstí",
                "region": "okres Plzeň-město"
            },
            "price": 3856000,
            "et_type": "2+1",
            "gps": {
                "lat": 49.73467240068825,
                "lon": 13.375302599311755
            },
            "company": null
        },
        {
            "hash_id": 966101852,
            "size": 77,
            "locality": {
                "city": "Plzeň",
                "district": "Křimice",
                "region": "okres Plzeň-město"
            },
            "price": 4412000,
            "et_type": "3+kk",
            "gps": {
                "lat": 49.749557400688246,
                "lon": 13.314563599311755
            },
            "company": null
        },
        {
            "hash_id": 2545257308,
            "size": 78,
            "locality": {
                "city": "Plzeň",
                "district": "Křimice",
                "region": "okres Plzeň-město"
            },
            "price": 4411000,
            "et_type": "3+kk",
            "gps": {
                "lat": 49.749557400688246,
                "lon": 13.314563599311755
            },
            "company": null
        },
        {
            "hash_id": 3719727964,
            "size": 54,
            "locality": {
                "city": "Plzeň",
                "district": "Lobzy",
                "region": "okres Plzeň-město"
            },
            "price": 3015000,
            "et_type": "3+1",
            "gps": {
                "lat": 49.74147340068825,
                "lon": 13.415492599311754
            },
            "company": null
        },
        {
            "hash_id": 285571676,
            "size": 30,
            "locality": {
                "city": "Plzeň",
                "district": "Východní Předměstí",
                "region": "okres Plzeň-město"
            },
            "price": 2688000,
            "et_type": "1+kk",
            "gps": {
                "lat": 49.732207400688246,
                "lon": 13.400920599311755
            },
            "company": null
        },
        {
            "hash_id": 3649145692,
            "size": 34,
            "locality": {
                "city": "Plzeň",
                "district": "Jižní Předměstí",
                "region": "okres Plzeň-město"
            },
            "price": 0,
            "et_type": "1+kk",
            "gps": {
                "lat": 49.72919840068825,
                "lon": 13.376704599311754
            },
            "company": null
        },
        {
            "hash_id": 1517849436,
            "size": 35,
            "locality": {
                "city": "Plzeň",
                "district": "Východní Předměstí",
                "region": "okres Plzeň-město"
            },
            "price": 2361000,
            "et_type": "2+kk",
            "gps": {
                "lat": 49.73324540068825,
                "lon": 13.401806599311755
            },
            "company": null
        },
        {
            "hash_id": 1675083100,
            "size": 98,
            "locality": {
                "city": "Plzeň",
                "district": "Lobzy",
                "region": "okres Plzeň-město"
            },
            "price": 5139000,
            "et_type": "4+kk",
            "gps": {
                "lat": 49.729007400688246,
                "lon": 13.418576599311756
            },
            "company": {
                "id": 15645,
                "ico": null,
                "name": "RE/MAX Optimal"
            }
        },
        {
            "hash_id": 387681116,
            "size": 63,
            "locality": {
                "city": "Plzeň",
                "district": "Severní Předměstí",
                "region": "okres Plzeň-město"
            },
            "price": 3390000,
            "et_type": "3+1",
            "gps": {
                "lat": 49.75469140068825,
                "lon": 13.361783599311755
            },
            "company": {
                "id": 17843,
                "ico": null,
                "name": "Bidli"
            }
        },
        {
            "hash_id": 1260186204,
            "size": 32,
            "locality": {
                "city": "Plzeň",
                "district": "Bolevec",
                "region": "okres Plzeň-město"
            },
            "price": 2124000,
            "et_type": "1+1",
            "gps": {
                "lat": 49.773932400688246,
                "lon": 13.375742599311755
            },
            "company": null
        },
        {
            "hash_id": 708287324,
            "size": 28,
            "locality": {
                "city": "Plzeň",
                "district": "Lobzy",
                "region": "okres Plzeň-město"
            },
            "price": 2288000,
            "et_type": "1+1",
            "gps": {
                "lat": 49.72468540068825,
                "lon": 13.413291599311755
            },
            "company": null
        },
        {
            "hash_id": 2340330332,
            "size": 61,
            "locality": {
                "city": "Plzeň",
                "district": "Skvrňany",
                "region": "okres Plzeň-město"
            },
            "price": 3350000,
            "et_type": "3+1",
            "gps": {
                "lat": 49.73540840068825,
                "lon": 13.333628599311755
            },
            "company": {
                "id": 20553,
                "ico": null,
                "name": "REALITNÍ APLIKACE.CZ"
            }
        },
        {
            "hash_id": 3686399324,
            "size": 35,
            "locality": {
                "city": "Plzeň",
                "district": "Křimice",
                "region": "okres Plzeň-město"
            },
            "price": 2788000,
            "et_type": "2+kk",
            "gps": {
                "lat": 49.74589840068825,
                "lon": 13.307803599311756
            },
            "company": null
        },
        {
            "hash_id": 2796841564,
            "size": 62,
            "locality": {
                "city": "",
                "district": "Plzeň",
                "region": "okres Plzeň-město"
            },
            "price": 5311000,
            "et_type": "3+kk",
            "gps": {
                "lat": 49.73800640068825,
                "lon": 13.433414599311755
            },
            "company": null
        },
        {
            "hash_id": 4139035484,
            "size": 22,
            "locality": {
                "city": "Plzeň",
                "district": "Lobzy",
                "region": "okres Plzeň-město"
            },
            "price": 2060000,
            "et_type": "1+1",
            "gps": {
                "lat": 49.740439400688246,
                "lon": 13.423018599311755
            },
            "company": {
                "id": 47,
                "ico": null,
                "name": "MAXIMA REALITY"
            }
        },
        {
            "hash_id": 2184411740,
            "size": 32,
            "locality": {
                "city": "Plzeň",
                "district": "Jižní Předměstí",
                "region": "okres Plzeň-město"
            },
            "price": 2621000,
            "et_type": "1+kk",
            "gps": {
                "lat": 49.73291740068825,
                "lon": 13.374311599311755
            },
            "company": {
                "id": 18494,
                "ico": 6663184,
                "name": "ERA Estate A. Legal"
            }
        },
        {
            "hash_id": 2726333788,
            "size": 38,
            "locality": {
                "city": "Plzeň",
                "district": "Jižní Předměstí",
                "region": "okres Plzeň-město"
            },
            "price": 2982000,
            "et_type": "2+1",
            "gps": {
                "lat": 49.71946640068825,
                "lon": 13.362795599311754
            },
            "company": {
                "id": 18498,
                "ico": null,
                "name": "T2 REALITY"
            }
        },
        {
            "hash_id": 627551068,
            "size": 59,
            "locality": {
                "city": "Plzeň",
                "district": "Jižní Předměstí",
                "region": "okres Plzeň-město"
            },
            "price": 2941000,
            "et_type": "2+1",
            "gps": {
                "lat": 49.726764400688246,
                "lon": 13.376185599311755
            },
            "company": null
        },
        {
            "hash_id": 4140870492,
            "size": 86,
            "locality": {
                "city": "Plzeň",
                "district": "Severní Předměstí",
                "region": "okres Plzeň-město"
            },
            "price": 7346000,
            "et_type": "2+1",
            "gps": {
                "lat": 49.75320040068825,
                "lon": 13.360422599311756
            },
            "company": null
        },
        {
            "hash_id": 360819548,
            "size": 54,
            "locality": {
                "city": "Plzeň",
                "district": "Jižní Předměstí",
                "region": "okres Plzeň-město"
            },
            "price": 3260000,
            "et_type": "3+1",
            "gps": {
                "lat": 49.72605040068825,
                "lon": 13.379964599311755
            },
            "company": null
        },
        {
            "hash_id": 2813860956,
            "size": 44,
            "locality": {
                "city": "Plzeň",
                "district": "Východní Předměstí",
                "region": "okres Plzeň-město"
            },
            "price": 2777000,
            "et_type": "1+kk",
            "gps": {
                "lat": 49.730189400688246,
                "lon": 13.395131599311755
            },
            "company": null
        },
        {
            "hash_id": 574729052,
            "size": 65,
            "locality": {
                "city": "Plzeň",
                "district": "Severní Předměstí",
                "region": "okres Plzeň-město"
            },
            "price": 4486000,
            "et_type": "2+kk",
            "gps": {
                "lat": 49.746791400688245,
                "lon": 13.386018599311754
            },
            "company": null
        },
        {
            "hash_id": 3981208156,
            "size": 24,
            "locality": {
                "city": "Plzeň",
                "district": "Jižní Předměstí",
                "region": "okres Plzeň-město"
            },
            "price": 2083000,
            "et_type": "1+1",
            "gps": {
                "lat": 49.721313400688246,
                "lon": 13.376340599311755
            },
            "company": {
                "id": 47,
                "ico": null,
                "name": "MAXIMA REALITY"
            }
        },
        {
            "hash_id": 3540888412,
            "size": 111,
            "locality": {
                "city": "",
                "district": "Kyšice",
                "region": "okres Plzeň-město"
            },
            "price": 6496000,
            "et_type": "5+kk",
            "gps": {
                "lat": 49.74504040068825,
                "lon": 13.497445599311755
            },
            "company": null
        },
        {
            "hash_id": 1101966172,
            "size": 118,
            "locality": {
                "city": "",
                "district": "Kyšice",
                "region": "okres Plzeň-město"
            },
            "price": 6496000,
            "et_type": "4+kk",
            "gps": {
                "lat": 49.74504040068825,
                "lon": 13.497445599311755
            },
            "company": null
        },
        {
            "hash_id": 2990517084,
            "size": 45,
            "locality": {
                "city": "Plzeň",
                "district": "Východní Předměstí",
                "region": "okres Plzeň-město"
            },
            "price": 2860000,
            "et_type": "2+1",
            "gps": {
                "lat": 49.72178940068825,
                "lon": 13.409757599311755
            },
            "company": null
        },
        {
            "hash_id": 30124892,
            "size": 40,
            "locality": {
                "city": "Plzeň",
                "district": "Jižní Předměstí",
                "region": "okres Plzeň-město"
            },
            "price": 3587000,
            "et_type": "2+kk",
            "gps": {
                "lat": 49.71996640068825,
                "lon": 13.361085599311755
            },
            "company": {
                "id": 17843,
                "ico": null,
                "name": "Bidli"
            }
        },
        {
            "hash_id": 1647360860,
            "size": 57,
            "locality": {
                "city": "",
                "district": "Chválenice",
                "region": "okres Plzeň-město"
            },
            "price": 0,
            "et_type": "4+1",
            "gps": {
                "lat": 49.63481440068825,
                "lon": 13.484116599311754
            },
            "company": null
        },
        {
            "hash_id": 314358620,
            "size": 52,
            "locality": {
                "city": "Plzeň",
                "district": "Skvrňany",
                "region": "okres Plzeň-město"
            },
            "price": 2770000,
            "et_type": "2+1",
            "gps": {
                "lat": 49.734447400688246,
                "lon": 13.339583599311755
            },
            "company": null
        },
        {
            "hash_id": 673618524,
            "size": 45,
            "locality": {
                "city": "Plzeň",
                "district": "Doubravka",
                "region": "okres Plzeň-město"
            },
            "price": 2778000,
            "et_type": "2+1",
            "gps": {
                "lat": 49.74960240068825,
                "lon": 13.427831599311755
            },
            "company": null
        },
        {
            "hash_id": 3536865884,
            "size": 111,
            "locality": {
                "city": "",
                "district": "Kyšice",
                "region": "okres Plzeň-město"
            },
            "price": 6496000,
            "et_type": "5+kk",
            "gps": {
                "lat": 49.745105400688246,
                "lon": 13.497433599311755
            },
            "company": null
        },
        {
            "hash_id": 1280395868,
            "size": 27,
            "locality": {
                "city": "Plzeň",
                "district": "Východní Předměstí",
                "region": "okres Plzeň-město"
            },
            "price": 1716000,
            "et_type": "1+kk",
            "gps": {
                "lat": 49.73342840068825,
                "lon": 13.398029599311755
            },
            "company": null
        },
        {
            "hash_id": 600984156,
            "size": 118,
            "locality": {
                "city": "",
                "district": "Kyšice",
                "region": "okres Plzeň-město"
            },
            "price": 6496000,
            "et_type": "4+kk",
            "gps": {
                "lat": 49.745105400688246,
                "lon": 13.497433599311755
            },
            "company": null
        },
        {
            "hash_id": 522140252,
            "size": 67,
            "locality": {
                "city": "Plzeň",
                "district": "Skvrňany",
                "region": "okres Plzeň-město"
            },
            "price": 3513000,
            "et_type": "4+1",
            "gps": {
                "lat": 49.73332540068825,
                "lon": 13.338488599311756
            },
            "company": null
        },
        {
            "hash_id": 3110947420,
            "size": 62,
            "locality": {
                "city": "",
                "district": "Plzeň",
                "region": "okres Plzeň-město"
            },
            "price": 3260000,
            "et_type": "2+1",
            "gps": {
                "lat": 49.73961240068825,
                "lon": 13.386520599311755
            },
            "company": null
        },
        {
            "hash_id": 3562011996,
            "size": 35,
            "locality": {
                "city": "Plzeň",
                "district": "Křimice",
                "region": "okres Plzeň-město"
            },
            "price": 2802000,
            "et_type": "2+kk",
            "gps": {
                "lat": 49.74589840068825,
                "lon": 13.307803599311756
            },
            "company": null
        }
    ]
}